[
  {
    "id": "castello_sforzesco",
    "title": "Castello Sforzesco",
    "category": "Storia & Patrimonio",
    "geometry": { "type": "Point", "coordinates": [9.1719, 45.4709] },
    "teaser": "Fortezza rinascimentale simbolo di Milano.",
    "photoIds": ["apertura_galleria_1867"],
    "characterIds": ["vittorio_emanuele_ii"],
    "date": ""
  },
  {
    "id": "duomo_milano",
    "title": "Duomo di Milano",
    "category": "Storia & Patrimonio",
    "geometry": { "type": "Point", "coordinates": [9.1910, 45.4642] },
    "teaser": "La cattedrale gotica che domina Piazza del Duomo.",
    "photoIds": ["ultima_cena", "prima_scala_1778"],
    "characterIds": ["leonardo_da_vinci", "vittorio_emanuele_ii"],
    "date": ""
  },
  {
    "id": "galleria_vittorio_emanuele",
    "title": "Galleria Vittorio Emanuele II",
    "category": "Arte & Cultura",
    "geometry": { "type": "Point", "coordinates": [9.1927, 45.4641] },
    "teaser": "Passaggio coperto ottocentesco, simbolo di eleganza.",
    "photoIds": ["apertura_galleria_1867"],
    "characterIds": ["raffaello_sanzio"],
    "date": ""
  },
  {
    "id": "pinacoteca_brera",
    "title": "Pinacoteca di Brera",
    "category": "Arte & Cultura",
    "geometry": { "type": "Point", "coordinates": [9.1872, 45.4728] },
    "teaser": "Una delle più importanti collezioni d’arte italiane.",
    "photoIds": ["inaugurazione_pinacoteca_1809"],
    "characterIds": ["giuseppe_verdi"],
    "date": ""
  },
  {
    "id": "santa_maria_delle_grazie",
    "title": "Santa Maria delle Grazie",
    "category": "Arte & Cultura",
    "geometry": { "type": "Point", "coordinates": [9.1758, 45.4660] },
    "teaser": "Dove è custodita l’Ultima Cena di Leonardo da Vinci.",
    "photoIds": ["ultima_cena"],
    "characterIds": ["leonardo_da_vinci"],
    "date": ""
  },
  {
    "id": "teatro_alla_scala",
    "title": "Teatro alla Scala",
    "category": "Musica & Spettacolo",
    "geometry": { "type": "Point", "coordinates": [9.1895, 45.4670] },
    "teaser": "Il celebre teatro d’opera di fama mondiale.",
    "photoIds": ["prima_scala_1778"],
    "characterIds": ["maria_callas", "luciano_pavarotti"],
    "date": ""
  },
  {
    "id": "castiglioni",
    "title": "Palazzo Castiglioni",
    "category": "Storia & Patrimonio",
    "geometry": { "type": "Point", "coordinates": [9.2070, 45.4730] },
    "teaser": "Capolavoro Liberty a Porta Venezia.",
    "photoIds": [],
    "characterIds": ["enzo_ferrari"],
    "date": ""
  },
  {
    "id": "galimberti",
    "title": "Casa Galimberti",
    "category": "Arte & Cultura",
    "geometry": { "type": "Point", "coordinates": [9.2040, 45.4750] },
    "teaser": "Eleganti mosaici e decorazioni floreali Liberty.",
    "photoIds": [],
    "characterIds": [],
    "date": ""
  },
  {
    "id": "guazzoni",
    "title": "Casa Guazzoni",
    "category": "Arte & Cultura",
    "geometry": { "type": "Point", "coordinates": [9.2020, 45.4760] },
    "teaser": "Art Nouveau con stucchi e vetrate suggestive.",
    "photoIds": [],
    "characterIds": [],
    "date": ""
  },
  {
    "id": "diurno",
    "title": "Albergo Diurno Venezia",
    "category": "Storia & Patrimonio",
    "geometry": { "type": "Point", "coordinates": [9.2040, 45.4720] },
    "teaser": "Storico spazio di relax pubblico in stile Liberty.",
    "photoIds": ["pizza_village_2018"],
    "characterIds": ["giuseppe_verdi"],
    "date": ""
  }
]