[
  {
    "id": "branca",
    "title": "Monumento a Leonardo da Vinci",
    "geometry": { "type": "Point", "coordinates": [9.19, 45.464] },
    "image": "/img/monumento_leonardo.jpg",
    "teaser": "Il celebre monumento nel cuore di Milano"
  },
  {
    "id": "grazie",
    "title": "Santa Maria delle Grazie",
    "geometry": { "type": "Point", "coordinates": [9.177, 45.466] },
    "image": "/img/santa_maria_delle_grazie.jpg",
    "teaser": "Dove si trova l’Ultima Cena di Leonardo"
  },
  /* … tutti gli altri POI originali … */
  {
    "id": "castiglioni",
    "title": "Palazzo Castiglioni",
    "geometry": { "type": "Point", "coordinates": [9.207, 45.473] },
    "image": "/img/castiglioni.jpg",
    "teaser": "Un esempio di architettura Liberty a Porta Venezia"
  },
  {
    "id": "galimberti",
    "title": "Casa Galimberti",
    "geometry": { "type": "Point", "coordinates": [9.204, 45.475] },
    "image": "/img/galimberti.jpg",
    "teaser": "Decorazioni floreali e vetrate liberty"
  },
  {
    "id": "guazzoni",
    "title": "Casa Guazzoni",
    "geometry": { "type": "Point", "coordinates": [9.202, 45.476] },
    "image": "/img/guazzoni.jpg",
    "teaser": "Imponenti mosaici e stucchi liberty"
  },
  {
    "id": "diurno",
    "title": "Albergo Diurno Venezia",
    "geometry": { "type": "Point", "coordinates": [9.204, 45.472] },
    "image": "/img/diurno.jpg",
    "teaser": "Un raro spazio pubblico in stile liberty"
  }
]