[
  {
    "id": "castello_sforzesco",
    "title": "Castello Sforzesco",
    "geometry": { "type": "Point", "coordinates": [9.1719, 45.4709] },
    "image": "/img/castello.jpg",
    "teaser": "Fortezza rinascimentale simbolo di Milano."
  },
  {
    "id": "duomo_milano",
    "title": "Duomo di Milano",
    "geometry": { "type": "Point", "coordinates": [9.1910, 45.4642] },
    "image": "/img/duomo_milano.jpg",
    "teaser": "La cattedrale gotica che domina Piazza del Duomo."
  },
  {
    "id": "galleria_vittorio_emanuele",
    "title": "Galleria Vittorio Emanuele II",
    "geometry": { "type": "Point", "coordinates": [9.1927, 45.4641] },
    "image": "/img/guazzoni.jpg",
    "teaser": "Passaggio coperto ottocentesco, simbolo di eleganza."
  },
  {
    "id": "pinacoteca_brera",
    "title": "Pinacoteca di Brera",
    "geometry": { "type": "Point", "coordinates": [9.1872, 45.4728] },
    "image": "/img/guazzoni.jpg",
    "teaser": "Una delle più importanti collezioni d’arte italiane."
  },
  {
    "id": "santa_maria_delle_grazie",
    "title": "Santa Maria delle Grazie",
    "geometry": { "type": "Point", "coordinates": [9.1758, 45.4660] },
    "image": "/img/grazie.jpg",
    "teaser": "Dove è custodita l’Ultima Cena di Leonardo da Vinci."
  },
  {
    "id": "teatro_alla_scala",
    "title": "Teatro alla Scala",
    "geometry": { "type": "Point", "coordinates": [9.1895, 45.4670] },
    "image": "/img/castiglioni.jpg",
    "teaser": "Il celebre teatro d’opera di fama mondiale."
  },
  {
    "id": "castiglioni",
    "title": "Palazzo Castiglioni",
    "geometry": { "type": "Point", "coordinates": [9.2070, 45.4730] },
    "image": "/img/castiglioni.jpg",
    "teaser": "Capolavoro Liberty a Porta Venezia."
  },
  {
    "id": "galimberti",
    "title": "Casa Galimberti",
    "geometry": { "type": "Point", "coordinates": [9.2040, 45.4750] },
    "image": "/img/galimberti.jpg",
    "teaser": "Eleganti mosaici e decorazioni floreali Liberty."
  },
  {
    "id": "guazzoni",
    "title": "Casa Guazzoni",
    "geometry": { "type": "Point", "coordinates": [9.2020, 45.4760] },
    "image": "/img/guazzoni.jpg",
    "teaser": "Art Nouveau con stucchi e vetrate suggestive."
  },
  {
    "id": "diurno",
    "title": "Albergo Diurno Venezia",
    "geometry": { "type": "Point", "coordinates": [9.2040, 45.4720] },
    "image": "/img/diurno.jpg",
    "teaser": "Storico spazio di relax pubblico in stile Liberty."
  }
]